City_ID,City,Lat,Lng,Max Temp,Humidity,Cloudiness,Wind Speed,Country,Date
0,san ignacio,17.1561,-89.0714,307.23,52,20,2.06,BZ,2024-09-01
1,avarua,-21.2078,-159.775,294.18,94,75,7.72,CK,2024-09-01
2,edinburgh of the seven seas,-37.0676,-12.3116,283.03,67,100,10.06,SH,2024-09-01
3,khasab,26.1799,56.2477,304.03,59,75,2.31,OM,2024-09-01
4,huaral,-11.495,-77.2078,293.1,65,49,3.44,PE,2024-09-01
5,blackmans bay,-43.0167,147.3167,279.22,89,99,4.82,AU,2024-09-01
6,vallenar,-28.5708,-70.7581,300.6,19,0,2.87,CL,2024-09-01
7,grytviken,-54.2811,-36.5092,273.73,81,5,1.35,GS,2024-09-01
8,new norfolk,-42.7826,147.0587,279.66,98,100,1.7,AU,2024-09-01
9,college,64.8569,-147.8028,284.12,74,100,1.54,US,2024-09-01
10,thames,-37.1333,175.5333,284.64,84,0,0.72,NZ,2024-09-01
11,quiberon,47.4841,-3.1196,291.54,83,9,6.11,FR,2024-09-01
12,port-aux-francais,-49.35,70.2167,272.71,67,100,16.28,TF,2024-09-01
13,arraial do cabo,-22.9661,-42.0278,297.13,69,0,7.72,BR,2024-09-01
14,qaqortoq,60.7167,-46.0333,277.84,59,4,1.64,GL,2024-09-01
15,paide,58.8856,25.5572,284.82,86,95,1.1,EE,2024-09-01
16,happy valley-goose bay,53.3168,-60.3315,293.32,77,100,7.72,CA,2024-09-01
17,bethel,41.3712,-73.414,298.92,85,100,3.6,US,2024-09-01
18,san juan,-31.5375,-68.5364,298.22,18,0,6.37,AR,2024-09-01
19,puerto natales,-51.7236,-72.4875,282.4,53,40,12.86,CL,2024-09-01
20,lompoc,34.6391,-120.4579,295.38,75,0,7.72,US,2024-09-01
21,tomatlan,19.9333,-105.25,304.77,61,95,3.1,MX,2024-09-01
22,ostersund,63.1792,14.6357,285.71,84,100,3.6,SE,2024-09-01
23,nar'yan-mar,67.6713,53.087,282.33,94,47,5.79,RU,2024-09-01
24,vila velha,-20.3297,-40.2925,297.12,78,0,8.23,BR,2024-09-01
25,laojunmiao,39.8333,97.7333,290.6,62,14,1.48,CN,2024-09-01
26,misratah,32.3754,15.0925,301.16,59,0,5.26,LY,2024-09-01
27,hawaiian paradise park,19.5933,-154.9731,300.88,84,100,6.17,US,2024-09-01
28,saudarkrokur,65.7461,-19.6394,284.43,78,99,4.87,IS,2024-09-01
29,punta arenas,-53.15,-70.9167,281.21,71,75,6.69,CL,2024-09-01
30,nemuro,43.3236,145.575,290.89,95,54,2.32,JP,2024-09-01
31,kasongo-lunda,-6.4667,16.8167,296.21,85,100,1.23,CD,2024-09-01
32,adamstown,-25.066,-130.1015,290.96,62,56,9.23,PN,2024-09-01
33,waitangi,-43.9535,-176.5597,284.16,98,33,1.79,NZ,2024-09-01
34,constantia,44.1833,28.65,293.54,81,24,2.21,RO,2024-09-01
35,kavaratti,10.5669,72.642,299.95,86,100,5.96,IN,2024-09-01
36,caconda,-13.7333,15.0667,293.53,25,77,1.82,AO,2024-09-01
37,puerto aysen,-45.4,-72.7,277.7,100,100,0.54,CL,2024-09-01
38,anadyr,64.75,177.4833,284.43,76,20,5.0,RU,2024-09-01
39,marondera,-18.1853,31.5519,282.25,46,0,4.39,ZW,2024-09-01
40,enewetak,11.3474,162.3373,301.79,78,35,6.79,MH,2024-09-01
41,lagoa,39.05,-27.9833,295.05,71,47,7.17,PT,2024-09-01
42,whitehorse,60.7161,-135.0538,286.58,59,75,6.71,CA,2024-09-01
43,al jawf,29.5,38.75,299.93,24,0,3.09,SA,2024-09-01
44,shingu,33.7333,135.9833,297.81,92,67,1.66,JP,2024-09-01
45,northam,51.0333,-4.2167,291.27,91,100,2.53,GB,2024-09-01
46,bayramaly,37.6185,62.1671,295.01,22,0,5.22,TM,2024-09-01
47,rio grande,-32.035,-52.0986,285.45,85,100,9.37,BR,2024-09-01
48,aasiaat,68.7098,-52.8699,275.08,80,97,1.37,GL,2024-09-01
49,talnakh,69.4865,88.3972,280.22,77,100,1.6,RU,2024-09-01
50,margaret river,-33.95,115.0667,283.46,87,62,2.73,AU,2024-09-01
51,noumea,-22.2763,166.4572,293.05,81,0,3.15,NC,2024-09-01
52,sokcho,38.2083,128.5911,298.49,73,94,2.57,KR,2024-09-01
53,ushuaia,-54.8,-68.3,282.96,50,20,4.12,AR,2024-09-01
54,bredasdorp,-34.5322,20.0403,283.32,93,85,3.15,ZA,2024-09-01
55,usakos,-22.0,15.6,299.23,17,3,4.25,NA,2024-09-01
56,puerto penasco,31.3167,-113.5333,312.14,55,0,6.69,MX,2024-09-01
57,ribeira grande,38.5167,-28.7,297.37,60,40,8.75,PT,2024-09-01
58,badger,64.8,-147.5333,284.08,83,100,1.54,US,2024-09-01
59,kodiak,57.79,-152.4072,286.88,72,100,1.54,US,2024-09-01
60,puerto baquerizo moreno,-0.9,-89.6,292.9,76,70,5.04,EC,2024-09-01
61,invercargill,-46.4,168.35,283.16,87,57,4.02,NZ,2024-09-01
62,aykhal,66.0,111.5,281.64,83,30,1.11,RU,2024-09-01
63,oral,51.2333,51.3667,290.14,45,0,5.0,KZ,2024-09-01
64,ust'-uda,54.1742,103.0304,284.39,95,44,2.87,RU,2024-09-01
65,iqaluit,63.7506,-68.5145,275.0,93,100,4.12,CA,2024-09-01
66,tralee,52.2704,-9.7026,288.86,96,100,1.39,IE,2024-09-01
67,juan de ayolas,-27.4,-56.9,291.78,49,89,3.57,PY,2024-09-01
68,udachny,66.4167,112.4,282.71,87,27,2.0,RU,2024-09-01
69,port mathurin,-19.6833,63.4167,294.88,78,15,9.26,MU,2024-09-01
70,kaedi,16.1465,-13.5047,310.23,36,100,2.77,MR,2024-09-01
71,hermanus,-34.4187,19.2345,285.48,83,69,6.44,ZA,2024-09-01
72,kerikeri,-35.2268,173.9474,288.1,94,17,0.55,NZ,2024-09-01
73,longyearbyen,78.2186,15.6401,279.06,93,75,1.54,SJ,2024-09-01
74,smithers,54.7804,-127.1743,297.33,38,40,2.06,CA,2024-09-01
75,suoyarvi,62.0833,32.35,283.52,93,7,0.69,RU,2024-09-01
76,saint marys,30.7305,-81.5465,305.18,71,0,4.63,US,2024-09-01
77,long beach,33.767,-118.1892,301.29,72,0,4.63,US,2024-09-01
78,stanley,54.868,-1.6985,287.75,97,75,2.57,GB,2024-09-01
79,gaspe,48.8334,-64.4819,296.27,73,40,7.72,CA,2024-09-01
80,lom sak,16.7798,101.2422,297.06,94,100,0.92,TH,2024-09-01
81,nizhnyaya omka,55.4338,74.9426,281.01,65,100,3.49,RU,2024-09-01
82,nyrob,60.733,56.7202,284.52,91,93,2.73,RU,2024-09-01
83,brookings,44.3114,-96.7984,295.47,50,75,3.6,US,2024-09-01
84,afaahiti,-17.75,-149.2833,295.71,75,98,13.44,PF,2024-09-01
85,mount pearl,47.5166,-52.7813,293.33,80,75,4.63,CA,2024-09-01
86,ust-nera,64.5667,143.2,279.69,97,100,4.26,RU,2024-09-01
87,ola,59.5833,151.2833,284.25,91,100,13.34,RU,2024-09-01
88,naxos,37.1056,25.3764,299.99,68,4,5.81,GR,2024-09-01
89,west island,-12.1568,96.8225,299.14,78,40,3.6,CC,2024-09-01
90,hrazdan,40.4975,44.7662,286.99,56,0,4.02,AM,2024-09-01
91,port lincoln,-34.7333,135.8667,284.57,50,9,10.23,AU,2024-09-01
92,chemolgan,43.1897,76.5292,287.36,57,14,0.79,KZ,2024-09-01
93,paka,4.6374,103.4368,298.11,94,100,0.0,MY,2024-09-01
94,vilyuchinsk,52.9306,158.4028,285.3,88,38,3.3,RU,2024-09-01
95,ilulissat,69.2167,-51.1,277.16,75,75,1.54,GL,2024-09-01
96,la ronge,55.1001,-105.2842,298.29,33,20,4.63,CA,2024-09-01
97,newman,37.3138,-121.0208,309.82,18,0,0.43,US,2024-09-01
98,coquimbo,-29.9533,-71.3436,289.0,70,40,5.66,CL,2024-09-01
99,palasa,18.7667,84.4167,298.78,92,100,1.74,IN,2024-09-01
100,harrison,30.4091,-89.0436,303.21,70,0,3.6,US,2024-09-01
101,papatowai,-46.5619,169.4708,283.64,87,26,4.76,NZ,2024-09-01
102,yaren,-0.5472,166.916,301.59,76,89,8.52,NR,2024-09-01
103,karatau,43.1667,70.4667,289.07,33,0,3.99,KZ,2024-09-01
104,quellon,-43.1167,-73.6167,282.66,94,100,10.54,CL,2024-09-01
105,bilibino,68.0546,166.4372,281.34,80,100,1.18,RU,2024-09-01
106,martuk,50.7475,56.5056,289.37,51,3,3.64,KZ,2024-09-01
107,vallegrande,-18.4897,-64.1069,294.17,40,80,5.48,BO,2024-09-01
108,ormara,25.2088,64.6357,300.33,91,0,3.03,PK,2024-09-01
109,isafjordur,66.0755,-23.124,281.62,78,100,5.35,IS,2024-09-01
110,ambikapur,23.1167,83.2,296.42,88,99,3.23,IN,2024-09-01
111,kununurra,-15.7667,128.7333,294.14,94,42,0.0,AU,2024-09-01
112,candolim,15.5181,73.7626,299.44,85,100,2.66,IN,2024-09-01
113,chonchi,-42.6128,-73.8092,283.77,95,100,6.5,CL,2024-09-01
114,uturoa,-16.7333,-151.4333,298.52,73,12,12.89,PF,2024-09-01
115,jamestown,42.097,-79.2353,297.6,67,75,5.66,US,2024-09-01
116,tremonton,41.7119,-112.1655,306.49,15,1,4.02,US,2024-09-01
117,klyuchi,52.2667,79.1667,284.44,86,100,5.3,RU,2024-09-01
118,kabalo,-6.05,26.9167,301.08,38,58,0.52,CD,2024-09-01
119,yuzhno-kurilsk,44.0306,145.8556,289.79,95,45,1.25,RU,2024-09-01
120,olonkinbyen,70.9221,-8.7187,280.39,88,76,12.61,SJ,2024-09-01
121,neiafu,-18.65,-173.9833,296.53,94,40,2.57,TO,2024-09-01
122,kingston,17.997,-76.7936,305.68,66,20,9.77,JM,2024-09-01
123,veinticinco de mayo,-35.4323,-60.1727,290.36,52,2,2.24,AR,2024-09-01
124,summerville,33.0185,-80.1757,307.04,64,0,6.17,US,2024-09-01
125,tawau,4.2498,117.8871,298.22,90,98,2.37,MY,2024-09-01
126,tiksi,71.6872,128.8694,277.98,75,18,3.18,RU,2024-09-01
127,arawa,-6.2132,155.5367,298.01,93,93,1.82,PG,2024-09-01
128,kiunga,-6.1219,141.2906,296.37,99,95,0.82,PG,2024-09-01
129,paphos,34.7667,32.4167,300.03,69,20,5.14,CY,2024-09-01
130,lata,40.1629,-8.3327,288.85,85,0,0.99,PT,2024-09-01
131,hanceville,34.0607,-86.7675,306.6,42,80,2.97,US,2024-09-01
132,saipan,15.1355,145.701,301.54,78,40,4.12,MP,2024-09-01
133,piranhas,-16.4269,-51.8222,309.54,11,3,3.04,BR,2024-09-01
134,gijang,35.2442,129.2139,296.0,83,77,2.2,KR,2024-09-01
135,dunedin,-45.8742,170.5036,287.48,61,19,2.25,NZ,2024-09-01
136,praia,14.9215,-23.5087,300.45,83,40,5.14,CV,2024-09-01
137,maiyama,12.0841,4.3677,297.68,87,24,3.66,NG,2024-09-01
138,warrnambool,-38.3833,142.4833,281.82,76,53,16.19,AU,2024-09-01
139,malvan,16.0667,73.4667,299.39,84,100,3.73,IN,2024-09-01
140,albany,42.6001,-73.9662,303.38,45,0,4.25,US,2024-09-01
141,atafu village,-8.5421,-172.5159,301.28,76,7,9.14,TK,2024-09-01
142,fuglafjordur,62.244,-6.814,283.87,92,100,7.84,FO,2024-09-01
143,loango,-4.6719,11.8312,294.96,88,20,3.6,CG,2024-09-01
144,kalabo,-14.97,22.6814,293.1,32,18,4.07,ZM,2024-09-01
145,beledweyne,4.7358,45.2036,298.86,64,6,9.78,SO,2024-09-01
146,queenstown,-31.8976,26.8753,281.92,91,4,1.82,ZA,2024-09-01
147,batang,-6.4846,110.7083,298.39,76,5,1.73,ID,2024-09-01
148,yellowknife,62.456,-114.3525,291.71,81,75,4.12,CA,2024-09-01
149,puerto ayora,-0.7393,-90.3518,295.12,83,44,1.79,EC,2024-09-01
150,rabigh,22.7986,39.0349,306.57,49,98,4.1,SA,2024-09-01
151,broome,42.2506,-75.833,302.35,44,0,6.17,US,2024-09-01
152,bodaybo,57.8506,114.1933,284.02,94,68,0.84,RU,2024-09-01
153,dwarka,22.2394,68.9678,300.31,85,100,3.94,IN,2024-09-01
154,georgetown,5.4112,100.3354,300.11,87,20,0.51,MY,2024-09-01
155,wailua homesteads,22.0669,-159.378,301.59,72,75,4.63,US,2024-09-01
156,chihuahua,28.5,-106.0,297.61,42,36,5.6,MX,2024-09-01
157,santana,-0.0583,-51.1817,307.25,52,40,2.57,BR,2024-09-01
158,ilebo,-4.3167,20.5833,296.15,75,88,0.36,CD,2024-09-01
159,kourou,5.1552,-52.6478,300.91,80,51,4.25,GF,2024-09-01
160,hailar,49.2,119.7,283.11,75,0,3.7,CN,2024-09-01
161,pirapora,-17.345,-44.9419,300.61,17,0,1.54,BR,2024-09-01
162,rabaul,-4.1967,152.1721,299.19,82,76,1.91,PG,2024-09-01
163,as sulayyil,20.4607,45.5779,305.27,14,96,2.67,SA,2024-09-01
164,tayaman,13.2295,120.5726,297.61,95,100,5.72,PH,2024-09-01
165,sarkand,45.41,79.9186,286.33,65,3,2.76,KZ,2024-09-01
166,calama,-22.4667,-68.9333,297.42,5,0,6.17,CL,2024-09-01
167,pangkalanbuun,-2.6833,111.6167,296.08,100,81,0.58,ID,2024-09-01
168,papao,-17.75,-149.55,298.52,75,82,14.27,PF,2024-09-01
169,port elizabeth,-33.918,25.5701,287.21,88,20,3.09,ZA,2024-09-01
170,kristiansund,63.1115,7.732,286.51,82,0,2.06,NO,2024-09-01
171,oranjemund,-28.55,16.4333,288.6,63,1,1.84,NA,2024-09-01
172,saynshand,44.8824,110.1163,289.4,41,0,4.12,MN,2024-09-01
173,san luis de la loma,17.2706,-100.8939,304.14,66,28,3.8,MX,2024-09-01
174,hampton bays,40.869,-72.5176,296.96,96,100,4.02,US,2024-09-01
175,sakata,38.9167,139.855,298.22,91,45,0.28,JP,2024-09-01
176,susuman,62.7833,148.1667,283.02,88,100,8.28,RU,2024-09-01
177,bodo,67.28,14.405,284.69,92,20,3.09,NO,2024-09-01
178,vernon,50.2581,-119.2691,304.68,37,7,1.03,CA,2024-09-01
179,tidjikja,18.5564,-11.4271,309.33,18,98,2.23,MR,2024-09-01
180,grandview,38.8858,-94.533,303.66,44,0,5.14,US,2024-09-01
181,ocean shores,46.9737,-124.1563,290.38,93,100,3.6,US,2024-09-01
182,iskateley,67.6803,53.1512,282.64,93,65,6.47,RU,2024-09-01
183,kattivakkam,13.2167,80.3167,300.99,86,19,4.51,IN,2024-09-01
184,tokar,18.4254,37.729,305.32,55,78,2.17,SD,2024-09-01
185,mirabad,30.4362,61.8383,302.26,17,3,9.14,AF,2024-09-01
186,insuratei,44.9167,27.6,294.51,67,20,0.92,RO,2024-09-01
187,apolinario saravia,-24.4328,-63.9954,297.58,27,3,4.36,AR,2024-09-01
188,masterton,-40.9597,175.6575,286.57,70,92,3.34,NZ,2024-09-01
189,fale old settlement,-9.3852,-171.2468,301.19,73,14,8.7,TK,2024-09-01
190,ugoofaaru,5.6667,73.0,301.24,79,96,4.85,MV,2024-09-01
191,brinkmann,-30.8659,-62.0374,291.52,37,0,1.3,AR,2024-09-01
192,princeville,45.7668,-61.2985,296.51,77,40,6.69,CA,2024-09-01
193,tual,-5.6667,132.75,299.38,83,99,8.37,ID,2024-09-01
194,lycksele,64.5954,18.6735,287.08,77,100,2.57,SE,2024-09-01
195,pratapgarh,24.0333,74.7833,298.22,86,100,1.62,IN,2024-09-01
196,gadzhiyevo,69.2551,33.3362,284.87,87,99,3.36,RU,2024-09-01
197,bubaque,11.2833,-15.8333,299.64,83,100,6.15,GW,2024-09-01
198,acarau,-2.8856,-40.12,298.42,73,4,8.25,BR,2024-09-01
199,nova sintra,14.8667,-24.7167,299.33,91,95,6.82,CV,2024-09-01
200,horta,38.5333,-28.6333,296.49,76,40,7.2,PT,2024-09-01
201,torghay,49.6339,63.4981,285.26,51,2,2.62,KZ,2024-09-01
202,sterling,39.0062,-77.4286,302.86,69,75,3.6,US,2024-09-01
203,floro,61.5996,5.0328,286.13,88,5,1.03,NO,2024-09-01
204,balta,47.9355,29.6198,295.36,46,100,5.39,UA,2024-09-01
205,battambang,13.1027,103.1982,297.62,96,100,2.19,KH,2024-09-01
206,tangalle,6.024,80.7911,299.78,83,65,5.53,LK,2024-09-01
207,port douglas,-16.4833,145.4667,295.85,73,69,4.22,AU,2024-09-01
208,vung tau,10.346,107.0843,297.65,90,100,1.18,VN,2024-09-01
209,thompson,55.7435,-97.8558,292.24,48,75,3.6,CA,2024-09-01
210,buala,-8.145,159.5921,300.32,82,80,4.5,SB,2024-09-01
211,weno,7.4515,151.8468,301.12,94,100,5.66,FM,2024-09-01
212,lihue,21.9789,-159.3672,301.92,74,75,4.63,US,2024-09-01
213,sandnessjoen,66.0217,12.6316,284.21,93,20,0.0,NO,2024-09-01
214,axams,47.2081,11.2869,287.62,81,100,2.57,AT,2024-09-01
215,lodeynoye pole,60.726,33.5531,284.42,86,83,1.89,RU,2024-09-01
216,pitea,65.3172,21.4794,286.81,97,100,2.94,SE,2024-09-01
217,muynoq,43.7683,59.0214,293.25,54,0,8.13,UZ,2024-09-01
218,dakhla,23.6848,-15.958,293.11,88,0,8.29,EH,2024-09-01
219,hafar al-batin,28.4328,45.9708,306.47,18,0,3.09,SA,2024-09-01
220,bafq,31.6128,55.4107,298.8,12,0,2.91,IR,2024-09-01
221,lensk,60.7253,114.9278,282.1,98,30,2.01,RU,2024-09-01
222,tarawa,1.419,172.984,302.2,79,75,5.14,KI,2024-09-01
223,balykshi,47.0667,51.8667,295.15,26,0,8.0,KZ,2024-09-01
224,acapulco de juarez,16.8634,-99.8901,304.05,70,75,3.09,MX,2024-09-01
225,tughyl,47.7252,84.2063,287.96,60,3,3.36,KZ,2024-09-01
226,hasaki,35.7333,140.8333,300.14,87,50,8.84,JP,2024-09-01
227,guerrero negro,27.9769,-114.0611,297.14,64,10,8.16,MX,2024-09-01
228,kyaikkami,16.08,97.5675,299.88,83,100,2.59,MM,2024-09-01
229,plainview,40.7765,-73.4673,300.1,83,75,4.63,US,2024-09-01
230,saint-philippe,-21.3585,55.7679,293.76,80,42,5.33,RE,2024-09-01
231,roses,42.262,3.1769,296.56,78,97,1.79,ES,2024-09-01
232,hengchun,22.0042,120.7439,301.43,79,98,2.72,TW,2024-09-01
233,gallup,35.5281,-108.7426,302.06,20,0,6.36,US,2024-09-01
234,burao,9.5221,45.5336,297.32,51,3,9.18,SO,2024-09-01
235,labuan,5.2767,115.2417,299.35,94,20,0.51,MY,2024-09-01
236,sa'dah,16.9402,43.7639,296.2,52,75,1.16,YE,2024-09-01
237,retreat,38.8245,-85.8533,306.13,25,0,4.32,US,2024-09-01
238,port alfred,-33.5906,26.891,287.69,89,81,0.45,ZA,2024-09-01
239,grinnell,41.743,-92.7224,298.14,33,0,3.09,US,2024-09-01
240,hirara,24.8,125.2833,297.3,100,0,0.51,JP,2024-09-01
241,nguigmi,14.2495,13.1092,303.61,56,100,4.83,NE,2024-09-01
242,yuma,32.7253,-114.6244,316.61,16,0,3.92,US,2024-09-01
243,fort st. john,56.2499,-120.8529,299.09,36,20,4.12,CA,2024-09-01
244,namtsy,62.7161,129.6658,283.85,59,100,5.62,RU,2024-09-01
245,lagunas,-5.2269,-75.6753,305.91,43,34,5.41,PE,2024-09-01
246,vegreville,53.5001,-112.0518,301.32,39,7,4.63,CA,2024-09-01
247,tazacorte,28.629,-17.9293,295.69,88,20,7.2,ES,2024-09-01
248,puerto colombia,10.9878,-74.9547,302.59,74,100,5.47,CO,2024-09-01
249,port saint john's,-31.6229,29.5448,291.97,78,99,3.71,ZA,2024-09-01
250,kathmandu,27.7167,85.3167,293.27,100,75,0.0,NP,2024-09-01
251,dudinka,69.4058,86.1778,279.26,72,95,1.7,RU,2024-09-01
252,kuching,1.55,110.3333,299.81,97,40,0.89,MY,2024-09-01
253,ilo,-17.6394,-71.3375,288.4,86,24,2.76,PE,2024-09-01
254,carbonear,47.7332,-53.2148,294.95,77,30,5.31,CA,2024-09-01
255,lautoka,-17.6167,177.4667,297.07,69,20,4.63,FJ,2024-09-01
256,tura,25.5198,90.2201,296.89,92,47,1.13,IN,2024-09-01
257,grantsville,40.5999,-112.4644,306.79,17,0,3.58,US,2024-09-01
258,axim,4.8699,-2.2405,296.73,89,98,3.28,GH,2024-09-01
259,fisterra,42.9049,-9.2629,291.61,94,100,2.58,ES,2024-09-01
260,vila franca do campo,37.7167,-25.4333,296.38,75,77,3.75,PT,2024-09-01
261,revda,56.801,59.9303,278.92,84,13,2.72,RU,2024-09-01
262,rehoboth,-23.3167,17.0833,292.71,22,9,4.28,NA,2024-09-01
263,nasriganj,25.05,84.3333,300.43,82,100,3.36,IN,2024-09-01
264,tolanaro,-25.0319,46.9987,292.19,94,75,9.26,MG,2024-09-01
265,nahiyat ash shinafiyah,31.5874,44.6602,307.65,21,0,4.56,IQ,2024-09-01
266,zile,40.3031,35.8864,293.81,77,94,1.83,TR,2024-09-01
267,kardla,58.9978,22.7492,284.92,86,100,1.87,EE,2024-09-01
268,mount isa,-20.7333,139.5,287.02,72,0,1.54,AU,2024-09-01
269,villa canas,-34.0057,-61.6076,289.23,10,0,3.11,AR,2024-09-01
270,touros,-5.1989,-35.4608,297.28,68,46,6.65,BR,2024-09-01
271,pathein,16.7833,94.7333,299.03,92,100,2.35,MM,2024-09-01
272,antalaha,-14.9003,50.2788,292.01,85,5,3.4,MG,2024-09-01
273,broken hill,-31.95,141.4333,284.57,74,10,7.85,AU,2024-09-01
274,malango,-2.9627,119.9001,291.54,98,78,0.97,ID,2024-09-01
275,utrik,11.2278,169.8474,301.13,78,11,4.32,MH,2024-09-01
276,lowestoft,52.4752,1.7516,292.62,88,69,4.97,GB,2024-09-01
277,alaghsas,17.0187,8.0168,302.83,56,100,5.72,NE,2024-09-01
278,merizo village,13.2658,144.6691,300.36,95,100,4.63,GU,2024-09-01
279,callao,-12.0667,-77.15,291.31,72,40,5.14,PE,2024-09-01
280,saldanha,-33.0117,17.9442,286.18,77,2,3.54,ZA,2024-09-01
281,mkushi,-13.6202,29.3939,286.48,78,8,1.61,ZM,2024-09-01
282,curuzu cuatia,-29.7917,-58.0546,288.36,73,67,3.28,AR,2024-09-01
283,vazante,-17.9869,-46.9078,299.38,19,23,2.01,BR,2024-09-01
284,wenatchee,47.4235,-120.3103,310.3,21,32,0.89,US,2024-09-01
285,brisas de zicatela,15.8369,-97.0419,303.4,69,45,3.18,MX,2024-09-01
286,chiredzi,-21.05,31.6667,288.27,38,0,1.46,ZW,2024-09-01
287,patterson,37.4716,-121.1297,303.12,17,0,2.46,US,2024-09-01
288,tartagal,-22.5164,-63.8013,297.69,27,25,2.41,AR,2024-09-01
289,qeshm,26.9581,56.2719,302.91,79,16,5.06,IR,2024-09-01
290,sullivan,36.5168,-82.5332,299.01,88,100,1.77,US,2024-09-01
291,igrim,63.1906,64.4162,287.78,90,99,5.3,RU,2024-09-01
292,rongelap,11.1635,166.8941,301.47,70,44,4.77,MH,2024-09-01
293,katsuura,35.1333,140.3,300.22,88,30,7.77,JP,2024-09-01
294,victorica,-36.2151,-65.4359,293.18,28,70,9.68,AR,2024-09-01
295,khandyga,62.6667,135.6,279.87,99,100,1.42,RU,2024-09-01
296,wajir,1.7471,40.0573,299.23,52,61,9.28,KE,2024-09-01
297,arkhangel'sk,64.5401,40.5433,290.21,88,40,2.0,RU,2024-09-01
298,franklin,39.9667,-83.0166,305.5,38,20,8.23,US,2024-09-01
299,valparaiso,-33.0393,-71.6273,297.28,49,0,5.14,CL,2024-09-01
300,zuyevka,58.405,51.1335,283.76,68,64,2.7,RU,2024-09-01
301,holualoa,19.6228,-155.9522,301.41,73,20,3.09,US,2024-09-01
302,ketchikan,55.3422,-131.6461,289.45,82,100,3.6,US,2024-09-01
303,pathardi,19.1667,75.1833,294.93,96,100,5.38,IN,2024-09-01
304,katsuren-haebaru,26.3369,127.8719,300.58,84,0,2.57,JP,2024-09-01
305,naze,28.3667,129.4833,295.66,74,82,1.78,JP,2024-09-01
306,plymouth,41.8334,-70.8328,297.67,90,100,0.45,US,2024-09-01
307,mejit,10.2753,170.8646,301.24,79,18,3.76,MH,2024-09-01
308,ailuk,10.2197,169.9797,301.43,78,7,4.65,MH,2024-09-01
309,namsos,64.4662,11.4957,281.1,93,0,1.03,NO,2024-09-01
310,crane,31.3974,-102.3501,303.86,34,83,5.45,US,2024-09-01
311,okha,53.5739,142.9478,285.09,74,2,6.51,RU,2024-09-01
312,hamilton,39.1834,-84.5333,304.93,43,0,6.26,US,2024-09-01
313,paraiso,9.8383,-83.8656,296.21,65,100,1.28,CR,2024-09-01
314,nagqu,31.5,92.0,277.47,86,91,0.7,CN,2024-09-01
315,rockdale,33.6501,-84.0166,306.8,55,40,0.0,US,2024-09-01
316,lerwick,60.1545,-1.1494,285.57,91,7,5.65,GB,2024-09-01
317,shar,49.5886,81.0453,284.66,81,99,1.65,KZ,2024-09-01
318,nyurba,63.2842,118.3319,279.55,92,44,1.27,RU,2024-09-01
319,haiku-pauwela,20.9219,-156.3051,303.16,69,40,6.69,US,2024-09-01
320,tokonou,9.65,-9.7833,294.56,97,96,2.61,GN,2024-09-01
321,margate,51.3813,1.3862,292.42,87,10,3.72,GB,2024-09-01
322,meadow lake,34.8014,-106.5436,303.03,24,55,6.76,US,2024-09-01
323,taoudenni,22.6783,-3.9836,309.57,25,56,7.46,ML,2024-09-01
324,kolonia,50.9333,6.95,299.24,66,0,3.09,DE,2024-09-01
325,cristalina,-16.7686,-47.6136,297.15,20,10,2.43,BR,2024-09-01
326,kamaishi,39.2667,141.8833,297.08,98,93,3.11,JP,2024-09-01
327,quthing,-30.4,27.7003,286.13,52,1,0.51,LS,2024-09-01
328,richards bay,-28.783,32.0377,291.0,58,0,2.66,ZA,2024-09-01
329,cascais,38.6979,-9.4215,294.29,83,40,7.2,PT,2024-09-01
330,tsiombe,-25.3,45.4833,291.7,78,25,6.31,MG,2024-09-01
331,tazovsky,67.4667,78.7,279.67,97,100,4.56,RU,2024-09-01
332,tezu,27.9167,96.1667,298.73,80,100,0.66,IN,2024-09-01
333,imbituba,-28.24,-48.6703,289.2,92,88,3.57,BR,2024-09-01
334,lorengau,-2.0226,147.2712,300.77,77,99,3.2,PG,2024-09-01
335,vorkuta,67.5,64.0,280.48,95,100,4.16,RU,2024-09-01
336,carnarvon,-24.8667,113.6333,291.13,42,0,6.13,AU,2024-09-01
337,thinadhoo,0.5333,72.9333,301.18,74,80,2.68,MV,2024-09-01
338,hilo,19.7297,-155.09,301.0,89,100,6.17,US,2024-09-01
339,colonia,50.9333,6.95,299.24,66,0,3.09,DE,2024-09-01
340,lewistown,40.5992,-77.5714,302.82,70,20,4.63,US,2024-09-01
341,coahuayana de hidalgo,18.7,-103.6583,302.91,77,79,1.99,MX,2024-09-01
342,kirensk,57.7853,108.1119,286.09,99,100,1.34,RU,2024-09-01
343,luderitz,-26.6481,15.1594,294.65,39,0,2.2,NA,2024-09-01
344,sur,22.5667,59.5289,301.66,81,100,7.62,OM,2024-09-01
345,kugesi,56.029,47.2925,285.96,88,0,2.0,RU,2024-09-01
346,omdurman,15.6445,32.4777,303.15,56,100,5.92,SD,2024-09-01
347,elliot lake,46.3834,-82.6331,293.05,30,34,5.26,CA,2024-09-01
348,corzuela,-26.9537,-60.9693,293.85,37,31,1.69,AR,2024-09-01
349,mata-utu,-13.2816,-176.1745,299.65,76,9,10.22,WF,2024-09-01
350,cockburn town,21.4612,-71.1419,306.13,66,40,7.72,TC,2024-09-01
351,huarmey,-10.0681,-78.1522,292.79,72,17,5.68,PE,2024-09-01
352,timmins,48.4669,-81.3331,289.05,55,75,5.14,CA,2024-09-01
353,nacala,-14.5428,40.6728,295.08,62,0,5.04,MZ,2024-09-01
354,kantunilkin,21.0917,-87.45,298.27,99,95,2.3,MX,2024-09-01
355,zheleznogorsk-ilimskiy,56.5768,104.1217,283.68,99,100,0.9,RU,2024-09-01
356,jurm,36.8648,70.8342,288.46,44,0,1.0,AF,2024-09-01
357,nueva guinea,11.6876,-84.4562,302.49,73,54,1.37,NI,2024-09-01
358,cipo,-11.0997,-38.5136,296.79,55,0,5.79,BR,2024-09-01
359,porto novo,6.4965,2.6036,299.05,87,98,2.83,BJ,2024-09-01
360,pitimbu,-7.4706,-34.8086,297.75,74,33,6.91,BR,2024-09-01
361,hithadhoo,-0.6,73.0833,300.93,76,9,2.0,MV,2024-09-01
362,prince rupert,54.3161,-130.3201,288.2,100,100,4.12,CA,2024-09-01
363,lauro de freitas,-12.8944,-38.3272,298.16,73,75,4.63,BR,2024-09-01
364,dean funes,-30.4204,-64.3498,293.29,28,0,2.98,AR,2024-09-01
365,betioky,-23.7167,44.3833,290.28,77,0,5.93,MG,2024-09-01
366,carauari,-4.8828,-66.8958,312.2,16,7,1.55,BR,2024-09-01
367,el calafate,-50.3408,-72.2768,278.35,67,0,2.7,AR,2024-09-01
368,bereznik,62.8551,42.7072,289.73,95,79,2.03,RU,2024-09-01
369,vadso,70.0744,29.7487,285.24,87,75,2.57,NO,2024-09-01
370,la passe,45.5549,-0.8967,292.22,89,3,1.56,FR,2024-09-01
371,aegina,37.7467,23.4275,300.33,55,7,3.6,GR,2024-09-01
372,muang xay,20.7,101.9833,294.84,97,62,0.28,LA,2024-09-01
373,tadine,-21.55,167.8833,296.04,63,91,4.84,NC,2024-09-01
374,sligo,54.2697,-8.4694,289.11,94,100,0.51,IE,2024-09-01
375,kailua-kona,19.6406,-155.9956,303.48,70,20,3.09,US,2024-09-01
376,biloela,-24.4167,150.5,289.63,91,2,1.01,AU,2024-09-01
377,yacuiba,-22.038,-63.6797,297.06,30,9,2.78,BO,2024-09-01
378,fort bragg,35.139,-79.006,304.16,69,40,6.17,US,2024-09-01
379,hawera,-39.5917,174.2833,285.65,81,20,4.36,NZ,2024-09-01
380,fortuna,40.5982,-124.1573,296.44,63,0,5.14,US,2024-09-01
381,cururupu,-1.8283,-44.8683,298.91,77,5,2.22,BR,2024-09-01
382,vilyuysk,63.7553,121.6247,278.61,83,11,2.31,RU,2024-09-01
383,kyshtovka,56.555,76.6271,280.09,79,100,3.02,RU,2024-09-01
384,juneau,58.3019,-134.4197,286.16,100,96,2.23,US,2024-09-01
385,bahia blanca,-38.7196,-62.2724,289.88,37,100,6.56,AR,2024-09-01
386,bougouni,11.417,-7.479,295.73,92,99,2.45,ML,2024-09-01
387,sao jose da coroa grande,-8.8978,-35.1478,297.27,70,19,5.85,BR,2024-09-01
388,saint croix,17.7397,-64.7388,302.01,79,17,1.79,VI,2024-09-01
389,swakopmund,-22.6833,14.5333,293.77,44,31,2.11,NA,2024-09-01
390,uyskoye,54.3775,60.0047,281.36,87,7,1.49,RU,2024-09-01
391,zyryanskoye,56.8306,86.6258,281.43,86,100,1.7,RU,2024-09-01
392,maluso,6.543,121.8753,299.48,89,100,3.02,PH,2024-09-01
393,mitu,1.1983,-70.1733,300.77,64,93,0.89,CO,2024-09-01
394,conceicao das alagoas,-19.9147,-48.3883,303.51,15,0,2.59,BR,2024-09-01
395,bianzhuang,34.8486,118.0447,295.77,90,100,7.52,CN,2024-09-01
396,conduaga,8.862,117.4893,298.94,90,100,3.15,PH,2024-09-01
397,valdivia,-39.8142,-73.2459,283.2,98,100,4.38,CL,2024-09-01
398,vorgashor,67.5833,63.95,280.24,96,100,4.36,RU,2024-09-01
399,yokadouma,3.5167,15.05,294.67,98,100,0.23,CM,2024-09-01
400,ritchie,-29.038,24.6028,289.55,42,0,2.11,ZA,2024-09-01
401,ad dilam,23.9915,47.1627,305.65,17,14,3.12,SA,2024-09-01
402,achinsk,56.2694,90.4993,282.28,88,100,2.11,RU,2024-09-01
403,baharly,38.4362,57.4316,298.09,25,0,3.01,TM,2024-09-01
404,gokwe,-18.2048,28.9349,287.13,41,0,5.54,ZW,2024-09-01
405,la'ie,21.6477,-157.9253,304.13,79,41,3.13,US,2024-09-01
406,mandan,46.8267,-100.8896,298.15,38,0,3.09,US,2024-09-01
407,bartow,27.8964,-81.8431,304.87,72,100,2.92,US,2024-09-01
408,parthenay,46.6667,-0.4167,291.45,94,8,2.65,FR,2024-09-01
409,grand falls-windsor,48.9332,-55.6649,295.1,63,97,1.34,CA,2024-09-01
410,toamasina,-18.1667,49.3833,292.15,94,20,2.06,MG,2024-09-01
411,road town,18.4167,-64.6167,303.17,79,40,3.09,VG,2024-09-01
412,petauke,-14.2426,31.3253,290.92,47,1,4.19,ZM,2024-09-01
413,hacienda huancane,-15.8222,-70.8856,280.36,46,97,7.98,PE,2024-09-01
414,kilindoni,-7.9139,39.6668,298.29,77,11,7.25,TZ,2024-09-01
415,puerto armuelles,8.2833,-82.8667,297.88,94,100,0.84,PA,2024-09-01
416,tafuna,-14.3358,-170.72,298.94,78,1,4.87,AS,2024-09-01
417,pinarhisar,41.6242,27.52,292.8,86,56,2.24,TR,2024-09-01
418,zheshart,62.0731,49.5733,289.82,82,100,3.18,RU,2024-09-01
419,sferracavallo,42.726,12.0956,299.06,63,65,0.18,IT,2024-09-01
420,severo-yeniseyskiy,60.3725,93.0408,277.04,93,100,1.69,RU,2024-09-01
421,birao,10.2849,22.7882,292.47,94,94,0.67,CF,2024-09-01
422,ciudad general teran,25.2667,-99.6833,302.87,59,100,2.58,MX,2024-09-01
423,marysville,48.0518,-122.1771,302.43,62,0,3.09,US,2024-09-01
424,kalmunai,7.4167,81.8167,299.91,75,75,2.57,LK,2024-09-01
425,pul-e khumri,35.9446,68.7151,295.85,24,0,0.02,AF,2024-09-01
426,parauapebas,-6.0675,-49.9022,309.14,24,0,3.09,BR,2024-09-01
427,begusarai,25.4167,86.1333,300.43,84,100,3.27,IN,2024-09-01
428,itoman,26.1247,127.6694,300.58,74,0,2.06,JP,2024-09-01
429,saint-pierre,-21.3393,55.4781,292.97,64,20,3.6,RE,2024-09-01
430,namibe,-15.1961,12.1522,292.59,84,98,2.47,AO,2024-09-01
431,tamanrasset,22.785,5.5228,290.1,100,40,3.6,DZ,2024-09-01
432,dauphin,51.1494,-100.0502,296.23,35,0,4.12,CA,2024-09-01
433,zaozersk,69.4005,32.4476,284.82,88,97,3.06,RU,2024-09-01
434,oistins,13.0667,-59.5333,304.2,70,40,4.63,BB,2024-09-01
435,gornyatskiy,48.2915,40.9575,299.03,36,55,6.91,RU,2024-09-01
436,bonthe,7.5264,-12.505,297.81,89,100,5.43,SL,2024-09-01
437,luganville,-15.5333,167.1667,299.11,63,75,6.57,VU,2024-09-01
438,kamloops,50.6665,-120.3192,303.57,39,20,1.03,CA,2024-09-01
439,ciudad lazaro cardenas,17.9583,-102.2,303.73,67,97,4.93,MX,2024-09-01
440,ingeniero jacobacci,-41.3427,-69.5448,282.74,38,90,16.38,AR,2024-09-01
441,port isabel,26.0734,-97.2086,307.08,79,43,5.81,US,2024-09-01
442,mocimboa,-11.3167,40.35,297.41,74,38,7.3,MZ,2024-09-01
443,freeport,40.6576,-73.5832,301.1,80,20,4.12,US,2024-09-01
444,puerto ayacucho,5.6639,-67.6236,304.38,62,47,0.91,VE,2024-09-01
445,sanctuary point,-35.1114,150.629,293.34,27,0,9.25,AU,2024-09-01
446,kos,36.8933,27.2889,296.84,78,100,3.11,GR,2024-09-01
447,petropavlovsk-kamchatsky,53.0452,158.6483,285.48,100,75,1.0,RU,2024-09-01
448,sosnovo-ozerskoye,52.5249,111.5418,281.49,84,66,2.21,RU,2024-09-01
449,jaleshwar,26.6471,85.8008,299.64,85,100,3.0,NP,2024-09-01
450,pandan,14.0453,124.1694,300.01,81,100,9.04,PH,2024-09-01
451,terrace,54.5163,-128.6035,296.1,64,75,0.0,CA,2024-09-01
452,idri,27.5,13.2667,307.57,26,45,7.46,LY,2024-09-01
453,rawson,-43.3002,-65.1023,297.31,12,0,7.72,AR,2024-09-01
454,sibut,5.718,19.0739,294.33,97,89,1.34,CF,2024-09-01
455,polyarnyy,69.1989,33.4478,284.32,88,99,2.87,RU,2024-09-01
456,changleng,28.7,115.8167,303.07,70,0,1.18,CN,2024-09-01
457,sechura,-5.5569,-80.8222,296.14,58,21,7.97,PE,2024-09-01
458,novaya igirma,57.1334,103.9112,284.42,98,100,0.98,RU,2024-09-01
459,kegen,43.0197,79.2203,280.77,86,2,0.73,KZ,2024-09-01
460,jilib,0.4883,42.7854,296.54,84,60,3.27,SO,2024-09-01
461,codrington,-38.2667,141.9667,280.8,72,28,14.41,AU,2024-09-01
462,chu,43.5983,73.7614,290.46,37,39,5.59,KZ,2024-09-01
463,bijar,35.8668,47.6051,292.28,17,0,3.29,IR,2024-09-01
464,trinidad,-14.8333,-64.9,302.14,37,0,4.63,BO,2024-09-01
465,barra,-11.0894,-43.1417,300.97,39,4,2.82,BR,2024-09-01
466,parkes,-33.1333,148.1833,280.96,50,0,4.77,AU,2024-09-01
467,sulak,43.2734,47.5146,298.17,72,0,9.75,RU,2024-09-01
468,thunder bay,48.4001,-89.3168,294.14,37,20,8.23,CA,2024-09-01
469,shanhaiguan,39.9988,119.7564,290.01,66,21,2.77,CN,2024-09-01
470,burang,30.25,81.1667,282.84,82,100,2.18,CN,2024-09-01
471,hadibu,12.65,54.0333,298.71,80,15,9.35,YE,2024-09-01
472,skowhegan,44.7651,-69.7192,301.57,62,1,3.91,US,2024-09-01
473,limon,10.0,-83.0333,303.09,70,0,2.57,CR,2024-09-01
474,minas de marcona,-15.2119,-75.1103,288.89,59,0,7.64,PE,2024-09-01
475,ouargla,31.9493,5.325,310.19,22,20,2.57,DZ,2024-09-01
476,korla,41.7597,86.1469,297.54,44,3,1.28,CN,2024-09-01
477,bel ombre,-4.6167,55.4167,299.06,83,40,4.12,SC,2024-09-01
478,chibougamau,49.9168,-74.3659,283.94,87,75,3.09,CA,2024-09-01
479,chela,34.069,104.4619,288.12,98,96,1.54,CN,2024-09-01
480,ta`u,-14.2336,-169.5144,298.94,82,2,4.93,AS,2024-09-01
481,baiti,13.745,-14.7482,298.72,91,100,4.87,SN,2024-09-01
482,acajutla,13.5928,-89.8275,300.97,79,100,2.59,SV,2024-09-01
483,amahai,-3.3333,128.9167,297.24,85,68,1.78,ID,2024-09-01
484,marsh harbour,26.5412,-77.0636,302.02,74,100,6.56,BS,2024-09-01
485,essaouira,31.5125,-9.77,296.87,73,0,5.14,MA,2024-09-01
486,coxim,-18.5067,-54.76,309.33,13,0,2.38,BR,2024-09-01
487,feldru,47.2833,24.6,289.49,51,19,3.57,RO,2024-09-01
488,gabu,12.2833,-14.2167,296.84,97,100,2.57,GW,2024-09-01
489,palu,-0.8917,119.8707,296.66,98,53,1.17,ID,2024-09-01
490,muscat,23.6139,58.5922,302.87,68,100,3.11,OM,2024-09-01
491,pacific grove,36.6177,-121.9166,296.14,75,0,4.63,US,2024-09-01
492,luena,-11.7833,19.9167,291.1,38,17,2.53,AO,2024-09-01
493,nikel,69.4128,30.222,283.77,87,97,1.76,RU,2024-09-01
494,nishinoomote,30.7333,131.0,299.02,78,68,2.4,JP,2024-09-01
495,andkhoy,36.9529,65.1238,296.13,24,0,5.19,AF,2024-09-01
496,tsarevo,42.1667,27.85,294.12,90,48,1.81,BG,2024-09-01
497,pontal do parana,-25.6533,-48.5128,292.88,83,100,1.82,BR,2024-09-01
498,kambove,-10.8764,26.5969,292.86,45,51,2.96,CD,2024-09-01
499,puttalam,8.0362,79.8283,300.73,83,95,8.4,LK,2024-09-01
500,odesskoye,54.2111,72.9651,279.24,82,85,2.23,RU,2024-09-01
501,arteche,12.2645,125.4048,297.86,89,97,2.35,PH,2024-09-01
502,sao joao da barra,-21.6403,-41.0511,298.2,80,0,8.43,BR,2024-09-01
503,olovyannaya,50.95,115.5667,283.75,70,12,2.19,RU,2024-09-01
504,labytnangi,66.6572,66.4183,281.99,87,100,4.56,RU,2024-09-01
505,at taj,24.2049,23.2857,306.9,27,9,6.33,LY,2024-09-01
506,yeppoon,-23.1333,150.7333,291.19,90,0,1.75,AU,2024-09-01
507,jose panganiban,14.2906,122.6917,298.18,91,100,10.09,PH,2024-09-01
508,st. john's,47.5649,-52.7093,292.9,82,75,4.63,CA,2024-09-01
509,zyryanovsk,49.7386,84.2719,281.47,89,100,1.1,KZ,2024-09-01
510,turabah,21.2141,41.6331,303.87,28,99,10.09,SA,2024-09-01
511,goor,52.2333,6.5861,294.86,77,23,0.45,NL,2024-09-01
512,bacalar,18.6667,-88.3833,306.21,66,75,5.66,MX,2024-09-01
513,newport,51.5877,-2.9984,292.84,90,99,2.37,GB,2024-09-01
514,kloulklubed,7.0419,134.2556,300.42,79,100,2.66,PW,2024-09-01
515,pindushi,62.9152,34.58,284.97,75,11,1.75,RU,2024-09-01
516,bafra,41.5678,35.9069,295.08,86,100,1.72,TR,2024-09-01
517,morant bay,17.8815,-76.4093,302.59,76,91,4.18,JM,2024-09-01
518,alofi,-19.0595,-169.9187,298.09,73,40,5.14,NU,2024-09-01
519,conception bay south,47.4999,-52.9981,294.01,83,75,4.9,CA,2024-09-01
520,nadym,65.5333,72.5167,280.2,95,100,5.14,RU,2024-09-01
521,aykol,38.1751,77.2132,297.05,44,93,2.34,CN,2024-09-01
522,argeles,42.5471,3.0225,294.83,87,79,1.86,FR,2024-09-01
523,iaciara,-14.0958,-46.6317,303.39,15,3,2.25,BR,2024-09-01
524,yermentau,51.6214,73.1069,278.64,91,56,3.11,KZ,2024-09-01
525,feira nova,-7.9508,-35.3892,294.76,81,16,4.72,BR,2024-09-01
526,opuwo,-18.0607,13.84,294.49,17,4,3.9,NA,2024-09-01
527,saint-joseph,-21.3667,55.6167,292.36,77,27,4.77,RE,2024-09-01
528,olaine,56.7853,23.9381,288.67,88,0,3.09,LV,2024-09-01
529,horseheads,42.167,-76.8205,301.9,56,1,3.48,US,2024-09-01
530,ketrzyn,54.0768,21.3753,285.69,68,2,3.12,PL,2024-09-01
531,murun-kuren,49.6342,100.1625,284.29,63,1,0.74,MN,2024-09-01
532,balabac,7.9868,117.0645,300.28,83,100,6.45,PH,2024-09-01
533,ridgecrest,35.6225,-117.6709,313.41,9,75,2.57,US,2024-09-01
534,fort mcmurray,56.7268,-111.381,302.92,34,100,9.26,CA,2024-09-01
535,zayed city,24.3768,54.589,308.71,59,0,4.12,AE,2024-09-01
536,shahr-e babak,30.1165,55.1186,294.95,14,0,6.82,IR,2024-09-01
537,arua,3.0201,30.9111,290.15,93,70,1.05,UG,2024-09-01
538,coyuca de benitez,17.0333,-100.0667,304.87,65,100,3.63,MX,2024-09-01
539,narasannapeta,18.4167,84.05,299.2,89,77,1.93,IN,2024-09-01
540,missoula,47.0166,-113.8009,297.37,14,6,2.54,US,2024-09-01
541,portland,45.5234,-122.6762,303.04,48,100,1.79,US,2024-09-01
542,kayangel,8.0823,134.7173,299.63,82,100,0.38,PW,2024-09-01
543,ambovombe,-25.1667,46.0833,291.62,80,36,7.79,MG,2024-09-01
544,rundu,-17.9333,19.7667,290.85,28,0,3.6,NA,2024-09-01
545,sefwi wiawso,6.2044,-2.4886,294.9,94,70,1.41,GH,2024-09-01
546,glencoe,-28.1783,30.147,286.9,40,0,1.16,ZA,2024-09-01
547,tofol,5.3248,163.0078,301.89,76,99,6.56,FM,2024-09-01
548,sisimiut,66.9395,-53.6735,276.59,74,94,2.85,GL,2024-09-01
549,pyapon,16.2833,95.6833,298.25,96,100,2.35,MM,2024-09-01
550,santa elena de uairen,4.6167,-61.1333,295.53,82,36,1.66,VE,2024-09-01
551,dilling,12.05,29.65,294.02,92,100,3.58,SD,2024-09-01
552,porbandar,21.6422,69.6093,300.05,86,100,2.08,IN,2024-09-01
553,selkirk,50.1436,-96.8845,294.92,45,100,2.24,CA,2024-09-01
554,egilsstadir,65.2653,-14.3948,287.1,72,75,9.77,IS,2024-09-01
555,kapit,2.0167,112.9333,295.87,99,100,0.33,MY,2024-09-01
556,bardai,11.65,7.2333,295.49,88,97,3.38,NG,2024-09-01
557,howard springs,-12.497,131.047,298.1,89,33,1.88,AU,2024-09-01
558,salanso,12.1833,-4.0833,297.47,92,100,2.27,BF,2024-09-01
559,iguape,-24.7081,-47.5553,294.92,72,97,3.49,BR,2024-09-01
560,flying fish cove,-10.4217,105.6791,296.97,88,100,3.6,CX,2024-09-01
561,riyadh,24.6877,46.7219,305.51,18,1,2.13,SA,2024-09-01
562,ghormach,35.7306,63.7826,295.62,27,0,2.72,AF,2024-09-01
563,san antonio,29.4241,-98.4936,309.18,46,75,5.66,US,2024-09-01
564,meulaboh,4.1363,96.1285,299.44,84,100,0.87,ID,2024-09-01
565,togur,58.3631,82.8265,279.1,87,100,2.95,RU,2024-09-01
566,lethbridge,49.7,-112.8186,303.42,30,75,2.06,CA,2024-09-01
567,presov,49.1667,21.25,290.45,72,9,2.16,SK,2024-09-01
568,kapuskasing,49.4169,-82.4331,285.2,87,75,7.72,CA,2024-09-01
569,ujae,8.9322,165.7642,301.46,79,98,6.43,MH,2024-09-01
570,presidente medici,-11.1753,-61.9014,311.43,15,3,2.38,BR,2024-09-01
571,geneina,13.45,22.45,292.93,95,99,3.0,SD,2024-09-01
572,pisco,-13.7,-76.2167,292.18,68,0,6.69,PE,2024-09-01
573,salalah,17.0151,54.0924,299.2,94,40,1.03,OM,2024-09-01
574,kone,-21.0595,164.8658,296.46,64,0,2.87,NC,2024-09-01
575,sinabang,2.4803,96.3801,299.08,85,100,1.45,ID,2024-09-01
576,nuuk,64.1835,-51.7216,279.49,45,20,2.57,GL,2024-09-01
577,tefe,-3.3542,-64.7114,308.21,49,20,3.09,BR,2024-09-01
578,coristanco,43.2,-8.75,293.96,86,99,1.25,ES,2024-09-01
579,puerto deseado,-47.7503,-65.8938,286.65,50,100,4.18,AR,2024-09-01
580,ryotsu-minato,38.0833,138.4333,297.13,85,53,1.09,JP,2024-09-01
581,kenai,60.5544,-151.2583,289.27,77,40,3.09,US,2024-09-01
582,alness,57.696,-4.2551,288.07,85,81,1.47,GB,2024-09-01
583,lucapa,-8.4192,20.7447,295.39,53,70,1.38,AO,2024-09-01
584,katima mulilo,-17.5,24.2667,290.67,44,0,2.64,NA,2024-09-01
585,mossel bay,-34.1831,22.146,283.11,80,8,2.19,ZA,2024-09-01
586,coron,11.9986,120.2043,297.87,94,100,3.29,PH,2024-09-01
587,mangrol,21.1167,70.1167,300.11,85,100,2.26,IN,2024-09-01
588,wagrowiec,52.8084,17.1996,288.98,51,95,3.47,PL,2024-09-01
589,kuraymah,18.55,31.85,304.64,52,95,6.13,SD,2024-09-01
590,cerano,20.1167,-101.3833,298.37,45,100,1.44,MX,2024-09-01
591,sal rei,16.1833,-22.9167,298.93,81,96,5.14,CV,2024-09-01
592,flin flon,54.7682,-101.865,294.06,43,75,4.63,CA,2024-09-01
593,turtas,58.9417,69.1325,281.24,78,98,4.3,RU,2024-09-01
594,masallatah,32.6167,14.0,298.04,70,2,3.87,LY,2024-09-01
595,umba,66.6871,34.3429,283.85,82,83,2.44,RU,2024-09-01
596,moab,38.5733,-109.5498,309.05,17,34,5.08,US,2024-09-01
597,alibag,18.6411,72.8792,299.68,84,100,2.51,IN,2024-09-01
598,beloyarskiy,63.7119,66.6722,286.63,97,100,3.59,RU,2024-09-01
599,newnham,-41.3833,147.1333,279.68,93,97,3.6,AU,2024-09-01
600,siwa oasis,29.2041,25.5195,305.75,32,34,6.65,EG,2024-09-01
601,diamantina,-18.2494,-43.6003,292.84,25,0,2.53,BR,2024-09-01
602,buka,40.8108,69.1986,289.97,42,2,1.7,UZ,2024-09-01
603,villa gesell,-37.2639,-56.973,283.15,90,100,2.82,AR,2024-09-01
604,tshabong,-26.05,22.45,291.37,33,0,4.92,BW,2024-09-01
605,hun,29.1268,15.9477,304.86,39,0,3.5,LY,2024-09-01
606,boali,4.8005,18.1275,294.6,96,46,1.34,CF,2024-09-01
607,yarmouth,41.7057,-70.2286,296.49,93,100,6.69,US,2024-09-01
608,khagaria,25.5,86.4833,300.52,83,100,3.02,IN,2024-09-01
609,ujjain,23.1833,75.7667,296.46,96,100,2.83,IN,2024-09-01
610,novyy urgal,51.0736,132.5642,279.86,77,0,2.59,RU,2024-09-01
611,mendi,-6.1761,143.6513,284.54,95,76,1.78,PG,2024-09-01
